施設名,住所,lat,lng
清水,〒273-0045　船橋市山手2丁目,35.7141693,139.9732253
林,〒274-0072　船橋市三山4丁目,35.7005589,140.0489305
飯田,〒274-0073　船橋市田喜野井2丁目,35.6985202,140.0437949
桑原,〒274-0064　船橋市松が丘5丁目,35.73493970000001,140.0514985
片渕（令和2年4月1日～令和3年3月31日まで事業休止）,〒274-0814　船橋市新高根1丁目,35.7250008,140.0206903
