[
  {
    "name": "宮本第一保育園",
    "lat": "35.697876",
    "lng": "139.995581",
    "details": {
      "number": "1",
      "address": "千葉県船橋市宮本6－26－27",
      "phone_number": "",
      "capacity": "126",
      "established_at": "昭和35年5月1日",
      "waiting_0yo": "0",
      "waiting_1yo": "0",
      "waiting_2yo": "0",
      "waiting_3yo": "0",
      "waiting_4yo": "0",
      "waiting_5yo": "0"
    }
  },
  {
    "name": "宮本第二保育園",
    "lat": "35.691441",
    "lng": "140.000087",
    "details": {
      "number": "2",
      "address": "千葉県船橋市宮本8-9-10",
      "phone_number": "",
      "capacity": "168",
      "established_at": "昭和50年4月1日",
      "waiting_0yo": "3",
      "waiting_1yo": "0",
      "waiting_2yo": "0",
      "waiting_3yo": "0",
      "waiting_4yo": "0",
      "waiting_5yo": "0"
    }
  },
  {
    "name": "若松保育園",
    "lat": "35.679506",
    "lng": "139.99428",
    "details": {
      "number": "3",
      "address": "千葉県船橋市若松2-6-3",
      "phone_number": "",
      "capacity": "168",
      "established_at": "昭和45年12月1日",
      "waiting_0yo": "0",
      "waiting_1yo": "0",
      "waiting_2yo": "0",
      "waiting_3yo": "0",
      "waiting_4yo": "0",
      "waiting_5yo": "0"
    }
  },
  {
    "name": "湊町保育園",
    "lat": "35.692708",
    "lng": "139.985185",
    "details": {
      "number": "4",
      "address": "千葉県船橋市湊町1-16-23",
      "phone_number": "",
      "capacity": "277",
      "established_at": "昭和29年6月10日",
      "waiting_0yo": "3",
      "waiting_1yo": "0",
      "waiting_2yo": "0",
      "waiting_3yo": "0",
      "waiting_4yo": "0",
      "waiting_5yo": "0"
    }
  },
  {
    "name": "千鳥保育園",
    "lat": "35.69625",
    "lng": "139.977984",
    "details": {
      "number": "5",
      "address": "千葉県船橋市南本町13-1",
      "phone_number": "",
      "capacity": "213",
      "established_at": "昭和28年4月20日",
      "waiting_0yo": "6",
      "waiting_1yo": "0",
      "waiting_2yo": "0",
      "waiting_3yo": "0",
      "waiting_4yo": "1",
      "waiting_5yo": "0"
    }
  },
  {
    "name": "中央保育園",
    "lat": "35.699898",
    "lng": "139.988965",
    "details": {
      "number": "6",
      "address": "千葉県船橋市本町4-17-21",
      "phone_number": "",
      "capacity": "209",
      "established_at": "昭和25年4月24日",
      "waiting_0yo": "3",
      "waiting_1yo": "2",
      "waiting_2yo": "1",
      "waiting_3yo": "0",
      "waiting_4yo": "0",
      "waiting_5yo": "0"
    }
  },
  {
    "name": "本町保育園",
    "lat": "35.705237",
    "lng": "139.987435",
    "details": {
      "number": "7",
      "address": "千葉県船橋市本町6-7-18",
      "phone_number": "",
      "capacity": "140",
      "established_at": "昭和53年4月1日",
      "waiting_0yo": "7",
      "waiting_1yo": "1",
      "waiting_2yo": "1",
      "waiting_3yo": "0",
      "waiting_4yo": "0",
      "waiting_5yo": "0"
    }
  },
  {
    "name": "海神第一保育園",
    "lat": "35.704307",
    "lng": "139.981539",
    "details": {
      "number": "8",
      "address": "千葉県船橋市海神2-13-25",
      "phone_number": "",
      "capacity": "244",
      "established_at": "昭和43年5月1日",
      "waiting_0yo": "5",
      "waiting_1yo": "1",
      "waiting_2yo": "0",
      "waiting_3yo": "0",
      "waiting_4yo": "0",
      "waiting_5yo": "0"
    }
  },
  {
    "name": "海神第二保育園",
    "lat": "35.700053",
    "lng": "139.981325",
    "details": {
      "number": "9",
      "address": "千葉県船橋市本町1-23-7",
      "phone_number": "",
      "capacity": "75",
      "established_at": "昭和50年4月1日",
      "waiting_0yo": "2",
      "waiting_1yo": "0",
      "waiting_2yo": "0",
      "waiting_3yo": "0",
      "waiting_4yo": "0",
      "waiting_5yo": "0"
    }
  },
  {
    "name": "西船保育園",
    "lat": "35.713873",
    "lng": "139.958156",
    "details": {
      "number": "10",
      "address": "千葉県船橋市西船6-1-24",
      "phone_number": "",
      "capacity": "150",
      "established_at": "昭和49年4月1日",
      "waiting_0yo": "6",
      "waiting_1yo": "1",
      "waiting_2yo": "1",
      "waiting_3yo": "0",
      "waiting_4yo": "0",
      "waiting_5yo": "0"
    }
  },
  {
    "name": "本中山保育園",
    "lat": "35.707213",
    "lng": "139.942609",
    "details": {
      "number": "11",
      "address": "千葉県船橋市本中山5-6-1",
      "phone_number": "",
      "capacity": "155",
      "established_at": "昭和53年4月1日",
      "waiting_0yo": "5",
      "waiting_1yo": "0",
      "waiting_2yo": "0",
      "waiting_3yo": "0",
      "waiting_4yo": "0",
      "waiting_5yo": "0"
    }
  },
  {
    "name": "若葉保育園",
    "lat": "35.743603",
    "lng": "139.987151",
    "details": {
      "number": "12",
      "address": "千葉県船橋市藤原7-41-1",
      "phone_number": "",
      "capacity": "163",
      "established_at": "昭和41年4月1日",
      "waiting_0yo": "16",
      "waiting_1yo": "4",
      "waiting_2yo": "6",
      "waiting_3yo": "1",
      "waiting_4yo": "0",
      "waiting_5yo": "0"
    }
  },
  {
    "name": "行田保育園",
    "lat": "35.716985",
    "lng": "139.969548",
    "details": {
      "number": "13",
      "address": "千葉県船橋市行田3-1-2",
      "phone_number": "",
      "capacity": "201",
      "established_at": "昭和52年4月1日",
      "waiting_0yo": "6",
      "waiting_1yo": "1",
      "waiting_2yo": "1",
      "waiting_3yo": "0",
      "waiting_4yo": "0",
      "waiting_5yo": "0"
    }
  },
  {
    "name": "夏見第一保育園",
    "lat": "35.712862",
    "lng": "139.991754",
    "details": {
      "number": "14",
      "address": "千葉県船橋市夏見4-10-26",
      "phone_number": "",
      "capacity": "147",
      "established_at": "昭和27年6月10日",
      "waiting_0yo": "1",
      "waiting_1yo": "1",
      "waiting_2yo": "3",
      "waiting_3yo": "0",
      "waiting_4yo": "0",
      "waiting_5yo": "0"
    }
  },
  {
    "name": "夏見第二保育園",
    "lat": "35.722778",
    "lng": "139.992056",
    "details": {
      "number": "15",
      "address": "千葉県船橋市夏見台4-1-1",
      "phone_number": "",
      "capacity": "150",
      "established_at": "昭和54年4月1日",
      "waiting_0yo": "7",
      "waiting_1yo": "1",
      "waiting_2yo": "1",
      "waiting_3yo": "0",
      "waiting_4yo": "0",
      "waiting_5yo": "0"
    }
  },
  {
    "name": "高根保育園",
    "lat": "35.731942",
    "lng": "140.026793",
    "details": {
      "number": "16",
      "address": "千葉県船橋市新高根4-19-2",
      "phone_number": "",
      "capacity": "165",
      "established_at": "昭和50年4月1日",
      "waiting_0yo": "6",
      "waiting_1yo": "0",
      "waiting_2yo": "2",
      "waiting_3yo": "0",
      "waiting_4yo": "1",
      "waiting_5yo": "1"
    }
  },
  {
    "name": "金杉台保育園",
    "lat": "35.735233",
    "lng": "140.011388",
    "details": {
      "number": "17",
      "address": "千葉県船橋市金杉台1-1-6",
      "phone_number": "",
      "capacity": "120",
      "established_at": "昭和47年4月1日",
      "waiting_0yo": "3",
      "waiting_1yo": "1",
      "waiting_2yo": "2",
      "waiting_3yo": "1",
      "waiting_4yo": "0",
      "waiting_5yo": "0"
    }
  },
  {
    "name": "二和保育園",
    "lat": "35.751535",
    "lng": "140.025326",
    "details": {
      "number": "18",
      "address": "千葉県船橋市二和東5-50-1",
      "phone_number": "",
      "capacity": "147",
      "established_at": "昭和45年10月1日",
      "waiting_0yo": "7",
      "waiting_1yo": "4",
      "waiting_2yo": "0",
      "waiting_3yo": "0",
      "waiting_4yo": "0",
      "waiting_5yo": "0"
    }
  },
  {
    "name": "三山保育園",
    "lat": "35.701426",
    "lng": "140.057952",
    "details": {
      "number": "19",
      "address": "千葉県船橋市三山6-26-26",
      "phone_number": "",
      "capacity": "162",
      "established_at": "昭和47年4月1日",
      "waiting_0yo": "4",
      "waiting_1yo": "0",
      "waiting_2yo": "2",
      "waiting_3yo": "0",
      "waiting_4yo": "2",
      "waiting_5yo": "0"
    }
  },
  {
    "name": "二宮保育園",
    "lat": "35.699908",
    "lng": "140.019657",
    "details": {
      "number": "20",
      "address": "千葉県船橋市前原西6-1-12",
      "phone_number": "",
      "capacity": "195",
      "established_at": "昭和38年7月1日",
      "waiting_0yo": "3",
      "waiting_1yo": "6",
      "waiting_2yo": "2",
      "waiting_3yo": "0",
      "waiting_4yo": "0",
      "waiting_5yo": "0"
    }
  },
  {
    "name": "習志野台第一保育園",
    "lat": "35.723368",
    "lng": "140.0463",
    "details": {
      "number": "21",
      "address": "千葉県船橋市習志野台2-50-3",
      "phone_number": "",
      "capacity": "248",
      "established_at": "昭和43年7月1日",
      "waiting_0yo": "23",
      "waiting_1yo": "7",
      "waiting_2yo": "1",
      "waiting_3yo": "0",
      "waiting_4yo": "0",
      "waiting_5yo": "0"
    }
  },
  {
    "name": "習志野台第二保育園",
    "lat": "35.726667",
    "lng": "140.049724",
    "details": {
      "number": "22",
      "address": "千葉県船橋市習志野台6-7-1",
      "phone_number": "",
      "capacity": "152",
      "established_at": "昭和48年4月1日",
      "waiting_0yo": "1",
      "waiting_1yo": "0",
      "waiting_2yo": "2",
      "waiting_3yo": "2",
      "waiting_4yo": "0",
      "waiting_5yo": "0"
    }
  },
  {
    "name": "高根台保育園",
    "lat": "35.734162",
    "lng": "140.030804",
    "details": {
      "number": "23",
      "address": "千葉県船橋市高根台2-2-2",
      "phone_number": "",
      "capacity": "200",
      "established_at": "昭和40年4月1日",
      "waiting_0yo": "2",
      "waiting_1yo": "0",
      "waiting_2yo": "4",
      "waiting_3yo": "2",
      "waiting_4yo": "0",
      "waiting_5yo": "0"
    }
  },
  {
    "name": "緑台保育園",
    "lat": "35.72848",
    "lng": "140.01392",
    "details": {
      "number": "24",
      "address": "千葉県船橋市緑台2-4-11",
      "phone_number": "",
      "capacity": "120",
      "established_at": "昭和50年4月1日",
      "waiting_0yo": "2",
      "waiting_1yo": "0",
      "waiting_2yo": "0",
      "waiting_3yo": "0",
      "waiting_4yo": "0",
      "waiting_5yo": "0"
    }
  },
  {
    "name": "芝山第一保育園",
    "lat": "35.717836",
    "lng": "140.019471",
    "details": {
      "number": "25",
      "address": "千葉県船橋市芝山3-10-4",
      "phone_number": "",
      "capacity": "187",
      "established_at": "昭和53年4月1日",
      "waiting_0yo": "6",
      "waiting_1yo": "2",
      "waiting_2yo": "4",
      "waiting_3yo": "1",
      "waiting_4yo": "0",
      "waiting_5yo": "0"
    }
  },
  {
    "name": "小室保育園",
    "lat": "35.788097",
    "lng": "140.076058",
    "details": {
      "number": "26",
      "address": "千葉県船橋市小室町3305",
      "phone_number": "",
      "capacity": "120",
      "established_at": "昭和55年4月1日",
      "waiting_0yo": "10",
      "waiting_1yo": "5",
      "waiting_2yo": "3",
      "waiting_3yo": "0",
      "waiting_4yo": "0",
      "waiting_5yo": "1"
    }
  },
  {
    "name": "浜町保育園",
    "lat": "35.69126",
    "lng": "139.989395",
    "details": {
      "number": "27",
      "address": "千葉県船橋市浜町1-1-1",
      "phone_number": "",
      "capacity": "143",
      "established_at": "昭和56年4月1日",
      "waiting_0yo": "1",
      "waiting_1yo": "0",
      "waiting_2yo": "1",
      "waiting_3yo": "0",
      "waiting_4yo": "0",
      "waiting_5yo": "0"
    }
  }
]