[
  {
    "name": "小規模保育所　リトルキディ",
    "address": "船橋市坪井東3-10-1グランソシア船橋芽吹の杜内",
    "phone_number": "047-436-8011",
    "capacity": "19",
    "established_at": "平成27年4月1日",
    "lat": 35.7283216,
    "lng": 140.0610485
  },
  {
    "name": "うみのほいくえん",
    "address": "船橋市湊町2-2-20アソルティ船橋102/202",
    "phone_number": "047-468-8698",
    "capacity": "19",
    "established_at": "平成27年4月1日",
    "lat": 35.6957732,
    "lng": 139.9839786
  },
  {
    "name": "パルパステル保育園",
    "address": "船橋市本町5-14-15 パルパステル",
    "phone_number": "047-460-6666",
    "capacity": "19",
    "established_at": "平成27年4月1日",
    "lat": 35.701909,
    "lng": 139.9887355
  },
  {
    "name": "共同保育所子どもの家",
    "address": "船橋市本町1-25-18",
    "phone_number": "047-423-1770",
    "capacity": "18",
    "established_at": "平成27年7月1日",
    "lat": 35.700852,
    "lng": 139.9821722
  },
  {
    "name": "キッズランド未来",
    "address": "船橋市二和東6-18-27　1階",
    "phone_number": "047-448-7735",
    "capacity": "19",
    "established_at": "平成27年10月1日",
    "lat": 35.7549382,
    "lng": 140.0223346
  },
  {
    "name": "保育ルームキューティー",
    "address": "船橋市前原東5-18-4",
    "phone_number": "047-427-7643",
    "capacity": "19",
    "established_at": "平成28年4月1日",
    "lat": 35.7006789,
    "lng": 140.0319026
  },
  {
    "name": "太陽の子　船橋三咲保育園",
    "address": "船橋市南三咲1-20-10",
    "phone_number": "047-440-6585",
    "capacity": "19",
    "established_at": "平成28年4月1日",
    "lat": 35.735703,
    "lng": 140.0240191
  },
  {
    "name": "ひだまり滝台保育園",
    "address": "船橋市滝台1-12-12",
    "phone_number": "047-436-8840",
    "capacity": "18",
    "established_at": "平成28年4月1日",
    "lat": 35.7077146,
    "lng": 140.0367543
  },
  {
    "name": "京進のほいくえんHOPPA船橋駅園",
    "address": "船橋市本町4-7-17",
    "phone_number": "047-405-2613",
    "capacity": "12",
    "established_at": "平成28年4月1日",
    "lat": 35.7010301,
    "lng": 139.9904967
  },
  {
    "name": "京進のほいくえんHOPPA津田沼園",
    "address": "船橋市前原西2-7-9-2F",
    "phone_number": "047-409-9571",
    "capacity": "19",
    "established_at": "平成28年4月1日",
    "lat": 35.6926794,
    "lng": 140.0190821
  },
  {
    "name": "リトル・清和",
    "address": "船橋市前貝塚町646-8",
    "phone_number": "047-404-7516",
    "capacity": "15",
    "established_at": "平成28年4月1日",
    "lat": 35.7262488,
    "lng": 139.9753692
  },
  {
    "name": "トレポンテ駅前保育園",
    "address": "船橋市本町6-8-1",
    "phone_number": "047-409-8816",
    "capacity": "19",
    "established_at": "平成28年4月1日",
    "lat": 35.7053588,
    "lng": 139.9854622
  },
  {
    "name": "りりぱっとナーサリー津田沼園",
    "address": "船橋市前原西2-44-10",
    "phone_number": "047-405-2331",
    "capacity": "19",
    "established_at": "平成28年10月1日",
    "lat": 35.6941807,
    "lng": 140.0190391
  },
  {
    "name": "りりぱっとナーサリー中山園",
    "address": "船橋市本中山2-23-16",
    "phone_number": "047-303-3038",
    "capacity": "12",
    "established_at": "平成28年10月1日",
    "lat": 35.7151091,
    "lng": 139.9422169
  },
  {
    "name": "すずらん保育園",
    "address": "船橋市三山3-39-2",
    "phone_number": "047-409-9541",
    "capacity": "19",
    "established_at": "平成29年4月1日",
    "lat": 35.6971347,
    "lng": 140.0515459
  },
  {
    "name": "健伸むぎの子保育園",
    "address": "船橋市丸山5-15-15",
    "phone_number": "047-404-8746",
    "capacity": "19",
    "established_at": "平成29年4月1日",
    "lat": 35.745839,
    "lng": 139.99476
  },
  {
    "name": "クレヨンキッズ北習志野園",
    "address": "船橋市習志野台1-34-25",
    "phone_number": "047-456-4440",
    "capacity": "19",
    "established_at": "平成29年4月1日",
    "lat": 35.7231,
    "lng": 140.0402846
  },
  {
    "name": "ココファン・ナーサリー西船橋",
    "address": "船橋市二子町610",
    "phone_number": "047-302-7761",
    "capacity": "19",
    "established_at": "平成29年4月1日",
    "lat": 35.7087272,
    "lng": 139.9488259
  },
  {
    "name": "東船橋色葉保育園",
    "address": "船橋市東船橋4-31-9",
    "phone_number": "047-460-2727",
    "capacity": "11",
    "established_at": "平成30年4月1日",
    "lat": 35.6995184,
    "lng": 140.0051524
  },
  {
    "name": "リップル保育園西船橋",
    "address": "船橋市葛飾町2-378-7",
    "phone_number": "047-401-5567",
    "capacity": "19",
    "established_at": "平成30年4月1日",
    "lat": 35.707114,
    "lng": 139.9562379
  },
  {
    "name": "ひかり保育園",
    "address": "船橋市習志野台4-3-9",
    "phone_number": "047-456-6370",
    "capacity": "18",
    "established_at": "平成30年4月1日",
    "lat": 35.7154195,
    "lng": 140.0441545
  },
  {
    "name": "ミアヘルサ保育園ひびき新船橋第二",
    "address": "船橋市山手1-3-17",
    "phone_number": "047-409-9055",
    "capacity": "19",
    "established_at": "平成31年4月1日",
    "lat": 35.7114727,
    "lng": 139.9800188
  },
  {
    "name": "やきがやなかよし保育園",
    "address": "船橋市八木が谷2-18-1",
    "phone_number": "047-498-9367",
    "capacity": "19",
    "established_at": "平成31年4月1日",
    "lat": 35.7606818,
    "lng": 140.0328772
  },
  {
    "name": "サンヴェルデ保育園",
    "address": "船橋市緑台2-4-17",
    "phone_number": "047-402-2270",
    "capacity": "19",
    "established_at": "令和元年10月1日",
    "lat": 35.7286149,
    "lng": 140.0145948
  },
  {
    "name": "ひだまり保育園",
    "address": "船橋市薬円台6-1-1",
    "phone_number": "047-404-8511",
    "capacity": "18",
    "established_at": "令和元年10月1日",
    "lat": 35.7102321,
    "lng": 140.0376168
  },
  {
    "name": "こりんご保育園",
    "address": "船橋市東船橋1-38-3-2F",
    "phone_number": "047-406-4380",
    "capacity": "15",
    "established_at": "令和2年4月1日",
    "lat": 35.6945485,
    "lng": 139.9827277
  }
]